,ID,Fuel Type Code,Access Code,Geocode Status,Latitude,Longitude,City,State
1139,29591,E85,public,200-9,40.320439,-79.941912,Pittsburgh,PA
1211,30261,E85,public,200-9,40.437695,-79.774261,Monroeville,PA
1212,30262,E85,public,200-9,40.44772,-80.157405,Pittsburgh,PA
1543,33001,E85,public,200-9,40.692812,-73.464669,Massapequa,NY
1550,33025,E85,public,200-9,42.78657,-73.99777,Schenectady,NY
1638,33393,E85,public,200-9,41.039006,-73.865296,Irvington,NY
1644,33404,E85,public,200-9,40.715264,-73.393473,Lindenhurst,NY
1699,33676,E85,private,GPS,40.350011,-74.604169,Princeton,NJ
1724,33799,E85,public,GPS,40.00178,-79.046458,Somerset,PA
1725,33801,E85,public,GPS,40.0586825,-78.0817503,Waterfall,PA
1743,33847,E85,private,200-8,42.629724,-73.776371,Albany,NY
1744,33849,E85,public,200-9,41.23846,-73.701367,Bedford Hills,NY
1745,33851,E85,private,200-9,43.090389,-76.094177,Syracuse,NY
1746,33854,E85,private,200-8,41.509275,-74.06745,Newburgh,NY
1786,34216,E85,public,200-9,41.194311,-73.880944,Croton-on-Hudson,NY
1998,35203,E85,public,200-9,39.810352,-74.736957,Shamong,NJ
2037,35430,E85,public,200-9,40.927328,-72.764756,Calverton,NY
2038,35431,E85,public,200-9,41.146978,-73.933908,Congers,NY
2039,35432,E85,public,200-9,40.915415,-72.348133,Water Mill,NY
2076,35537,E85,public,200-9,40.754913,-74.228564,East Orange,NJ
2079,35546,E85,public,GPS,40.63169,-80.055663,Wexford,PA
2089,35579,E85,public,200-9,40.691422,-73.477561,Massapequa,NY
2107,35614,E85,public,200-9,40.882367,-73.220888,Kings Park,NY
2108,35616,E85,public,200-9,39.866251,-79.745619,Uniontown,PA
2172,35822,E85,public,200-9,42.715671,-73.81201,Albany,NY
2173,35824,E85,public,200-9,40.844044,-73.277126,Commack,NY
2174,35825,E85,public,GPS,42.601571,-73.792571,Glenmont,NY
2175,35828,E85,public,200-9,40.791371,-73.41706,Melville,NY
2176,35832,E85,public,200-9,40.977334,-73.695826,Rye,NY
2177,35835,E85,public,GPS,41.248483,-74.172356,Southfields,NY
2186,35921,E85,public,200-9,40.76473,-73.022956,Patchogue,NY
2203,35983,E85,public,200-9,40.845379,-73.273087,Commack,NY
2204,35985,E85,public,200-9,40.657774,-73.649095,Rockville Centre,NY
2205,35986,E85,public,200-9,40.946992,-72.929752,Rocky Point,NY
2236,36327,E85,public,GPS,40.939222,-72.289942,Bridgehampton,NY
2237,36328,E85,public,200-9,40.799926,-73.173583,Islandia,NY
2310,36842,E85,public,200-9,40.221416,-77.163219,Carlisle,PA
2311,36843,E85,public,GPS,40.198392,-77.155333,Carlisle,PA
2312,36844,E85,public,200-9,40.325543,-76.78252,Harrisburg,PA
2406,38035,E85,public,GPS,40.836058,-72.744764,Eastport,NY
2454,38500,E85,public,200-9,40.829874,-73.014191,Farmingville,NY
2510,39210,E85,public,GPS,40.9386342806941,-73.00980312540894,Mt. Sinai,NY
2511,39211,E85,public,200-9,40.862041,-73.057233,Selden,NY
2833,40324,E85,public,200-9,40.753274,-73.703397,New Hyde Park,NY
2834,40325,E85,public,200-9,41.555133,-74.004052,Newburgh,NY
2890,40632,E85,public,200-9,40.904439,-73.787691,New Rochelle,NY
3062,42076,E85,public,200-9,41.387482,-72.158661,Waterford,CT
3212,43572,E85,public,200-9,40.877161,-73.325083,East Northport,NY
3545,44857,E85,public,200-9,42.356813,-71.114147,Cambridge,MA
4318,47311,E85,private,GPS,40.868691,-72.873968,Upton,NY
4810,48558,E85,public,GPS,42.155986,-71.964853,Charlton,MA
4882,48939,E85,public,GPS,42.140125,-72.024614,Charlton,MA
4883,48941,E85,public,GPS,42.244817,-71.592092,Westborough,MA
4888,48952,E85,public,200-9,40.613161,-75.571573,Allentown,PA
4972,49313,E85,public,GPS,42.95248,-78.60289,Clarence,NY
5478,51049,E85,public,200-8,40.933471,-73.05379,Port Jefferson Station,NY
5506,51184,E85,public,200-9,41.781388,-73.75974,Salt Point,NY
5757,52513,E85,public,200-8,40.521657,-79.812395,Verona,PA
6196,53849,E85,public,200-9,40.858097,-73.082718,Centereach,NY
6197,53851,E85,public,200-9,40.713916,-73.343892,West Babylon,NY
6198,53852,E85,public,200-9,40.94611,-73.88224,Yonkers,NY
6459,60567,E85,public,200-9,41.226076,-80.450797,Hermitage,PA
6460,60568,E85,public,GPS,40.353722,-79.837266,McKeesport,PA
6574,61019,E85,public,200-9,42.231607,-75.916744,Castle Creek,NY
6648,61254,E85,public,200-9,43.034675,-78.767652,Amherst,NY
6664,61345,E85,public,GPS,40.66297896114984,-73.7921584550171,Queens,NY
7149,63023,E85,public,200-9,41.033425,-73.624561,Greenwich,CT
7238,63286,E85,public,200-9,40.750129,-73.577703,Westbury,NY
7239,63287,E85,public,200-9,40.756145,-73.644781,Williston Park,NY
7501,64026,E85,private,200-8,41.101648,-73.952196,West Nyack,NY
7542,64232,E85,public,GPS,41.52584822712401,-74.12960444445802,Newburgh,NY
7548,64259,E85,public,200-9,40.419486,-79.927498,Pittsburgh,PA
7549,64260,E85,public,200-9,40.525972,-79.841807,Oakmont,PA
7566,64315,E85,public,GPS,40.803943,-72.853738,Mastic Beach,NY
7857,65590,E85,public,200-9,40.511419,-80.13258,Pittsburgh,PA
7858,65591,E85,public,200-9,40.333276,-79.81303,White Oak,PA
7859,65592,E85,public,200-9,40.626144,-80.229725,Baden,PA
8080,66469,E85,public,200-9,40.199432,-80.205843,South Strabane Township,PA
8499,68235,E85,public,200-9,40.945671,-72.823735,Wading River,NY
8543,68540,E85,public,200-6,41.387886,-72.080461,Groton,CT
9198,72095,E85,public,200-9,40.742087,-73.130834,Oakdale,NY
9492,73592,E85,public,200-9,40.370054,-79.786337,North Versailles,PA
9493,73593,E85,public,200-9,40.085545,-79.761279,Perryopolis,PA
9494,73594,E85,public,200-8,39.941607,-79.658235,Lemont Furnace,PA
9495,73595,E85,public,200-8,40.263895,-79.565561,Greensburg,PA
9496,73596,E85,public,200-8,40.759387,-80.114996,Zelienople,PA
9497,73597,E85,public,200-9,41.23041,-80.505559,Sharon,PA
9657,74744,E85,public,200-9,41.203011,-79.975341,Harrisville,PA
10307,79194,E85,public,GPS,40.653468,-73.886256,Brooklyn,NY
10830,81394,E85,public,200-9,40.163132,-76.153327,Ephrata,PA
11063,82330,E85,public,200-9,40.199746,-76.753065,Middletown,PA
11064,82331,E85,public,200-9,40.459151,-78.592462,Cresson,PA
11065,82332,E85,public,200-8,40.274476,-78.460141,Claysburg,PA
11197,82793,E85,public,200-9,40.707442,-75.276005,Easton,PA
12526,85706,E85,public,200-9,40.630159,-77.567726,Burnham,PA
12542,85728,E85,public,200-9,40.884228,-77.779995,Bellefonte,PA
12543,85729,E85,public,200-9,41.034274,-78.404663,Clearfield,PA
12545,85731,E85,public,200-8,41.212733,-76.763776,Muncy,PA
12546,85732,E85,public,GPS,40.488242,-78.041657,Smithfield Township,PA
12547,85733,E85,public,200-9,40.935309,-77.814223,Bellefonte,PA
12549,85735,E85,public,200-8,40.460746,-76.853072,Reedsville,PA
12550,85739,E85,public,200-9,40.2468,-77.028956,Mechanicsburg,PA
12551,85740,E85,public,200-9,41.215629,-77.17899,Linden,PA
12563,85762,E85,public,200-9,40.641015,-76.159586,Schuylkill Haven,PA
12564,85763,E85,public,200-9,40.582761,-77.369103,Mifflintown,PA
12871,86949,E85,public,200-8,39.984077,-76.727142,York,PA
13186,87863,E85,public,GPS,40.78558542800852,-72.97819467724611,East Patchogue,NY
13188,87865,E85,public,200-9,42.634261,-76.19144,Homer,NY
13190,87880,E85,public,200-9,41.526785,-74.071415,Newburgh,NY
13472,88740,E85,public,200-9,40.361563,-78.420463,East Freedom,PA
13474,88743,E85,public,200-9,40.054833,-77.513606,Shippensburg,PA
13477,88746,E85,public,200-9,41.248256,-76.958923,Williamsport,PA
13478,88747,E85,public,200-9,42.065532,-80.036728,Erie,PA
13479,88748,E85,public,200-9,40.059175,-76.319553,Lancaster,PA
13480,88749,E85,public,200-9,39.74492,-77.086736,Littlestown,PA
13485,88755,E85,public,200-8,41.627108,-79.677597,Titusville,PA
13486,88756,E85,public,200-9,40.035662,-76.455877,Columbia,PA
13487,88757,E85,public,200-9,39.738797,-77.526705,Waynesboro,PA
13492,88763,E85,public,200-9,41.805065,-77.085059,Mansfield,PA
13493,88764,E85,public,200-9,41.77094,-76.414475,Towanda,PA
13494,88765,E85,public,200-9,40.313194,-76.585098,Palmyra,PA
13495,88766,E85,public,GPS,39.759815,-77.728004,Greencastle,PA
13496,88767,E85,public,200-7,39.9067,-77.646822,Chambersburg,PA
13498,88769,E85,public,200-9,41.407347,-80.3829,Greenville,PA
13499,88770,E85,public,200-9,40.040528,-76.207847,Lancaster,PA
13500,88771,E85,public,200-9,39.992285,-76.635399,York,PA
13561,89792,E85,public,200-8,40.021646,-79.077339,Somerset,PA
13565,89856,E85,public,200-9,40.007469,-79.070152,Somerset,PA
13566,89857,E85,public,200-9,40.665453,-79.014192,Clymer,PA
13567,89858,E85,public,200-9,40.326565,-78.951454,Johnstown,PA
13568,89859,E85,public,200-9,40.540482,-78.354084,Altoona,PA
13569,89860,E85,public,200-9,40.595946,-77.581249,Lewistown,PA
13570,89861,E85,public,200-9,40.000133,-78.23937,Breezewood,PA
13571,89862,E85,public,200-9,40.46749,-78.756472,Ebensburg,PA
13572,89863,E85,public,200-9,39.784602,-77.706773,Greencastle,PA
13573,89864,E85,public,200-9,40.409419,-77.01019,Duncannon,PA
13574,89866,E85,public,200-9,40.218637,-76.978749,Mechanicsburg,PA
13575,89867,E85,public,GPS,40.835127,-77.671455,Center Hall,PA
13576,89868,E85,public,200-9,40.660931,-78.781125,Northern Cambria,PA
13577,89869,E85,public,200-9,41.064327,-80.056349,Slippery Rock,PA
13578,89870,E85,public,200-9,39.812783,-79.025434,Meyersdale,PA
13579,89871,E85,public,200-9,40.555529,-79.75968,New Kensington,PA
13580,89872,E85,public,200-9,40.764931,-79.52695,Ford City,PA
13581,89873,E85,public,200-9,40.704383,-80.277904,Rochester,PA
13582,89874,E85,public,200-9,40.685793,-80.105918,Cranberry Township,PA
13583,89875,E85,public,200-9,41.082681,-78.783865,Dubois,PA
13584,89876,E85,public,200-9,41.329734,-80.413835,Transfer,PA
13585,89877,E85,public,200-9,40.541899,-79.798697,Cheswick,PA
13586,89878,E85,public,200-9,40.845463,-79.881751,Butler,PA
13587,89879,E85,public,200-9,40.190557,-77.241238,Carlisle,PA
13588,89880,E85,public,200-9,40.116298,-77.038721,Dillsburg,PA
13589,89881,E85,public,200-9,41.046164,-76.273785,Berwick,PA
13590,89882,E85,public,200-9,41.402371,-79.805752,Franklin,PA
13591,89883,E85,public,200-9,40.990032,-76.065145,Sugarloaf,PA
13592,89884,E85,public,200-9,40.784325,-77.831771,State College,PA
13593,89885,E85,public,200-8,40.55328,-80.112989,Sewickley,PA
13594,89886,E85,public,200-9,40.316335,-79.683558,North Huntingdon,PA
13595,89887,E85,public,200-9,40.350982,-80.022741,Bethel Park,PA
13596,89889,E85,public,200-9,40.816607,-79.927201,Butler,PA
13597,89890,E85,public,GPS,40.2782315,-78.845044,Johnstown,PA
13598,89891,E85,public,200-8,41.013456,-80.397823,New Castle,PA
13599,89892,E85,public,200-9,39.799102,-77.199265,Gettysburg,PA
13600,89893,E85,public,200-8,40.434674,-79.73307,Monroeville,PA
13601,89894,E85,public,GPS,40.480442,-78.403264,Altoona,PA
13602,89895,E85,public,200-9,40.24309,-76.992953,Mechanicsburg,PA
13603,89896,E85,public,200-9,40.277995,-76.822773,Harrisburg,PA
13604,89897,E85,public,200-9,40.809129,-77.900998,State College,PA
13641,91697,E85,public,200-9,40.444223,-79.229932,Blairsville,PA
13774,92019,E85,public,200-9,40.628163,-73.736919,Cedarhurst,NY
13780,92029,E85,public,200-9,41.527946,-73.891745,Fishkill,NY
13792,92042,E85,public,200-9,40.651271,-73.604003,Baldwin,NY
13793,92043,E85,public,200-9,41.227204,-80.240683,Mercer,PA
13794,92044,E85,public,200-9,41.119127,-78.76018,Dubois,PA
13796,92046,E85,public,200-9,40.423452,-79.666334,Murrysville,PA
13798,92048,E85,public,200-9,39.860615,-79.955037,Carmichaels,PA
13799,92049,E85,public,200-9,40.443419,-75.954424,Leesport,PA
13800,92050,E85,public,200-9,39.844385,-77.199075,Gettysburg,PA
13801,92051,E85,public,200-9,40.503105,-80.223121,Moon,PA
13805,92055,E85,public,200-9,40.139953,-77.365891,Newville,PA
13818,92068,E85,public,200-9,40.61889,-79.731959,Natrona Heights,PA
13822,92072,E85,public,200-8,40.398493,-79.770189,Monroeville,PA
14907,98772,E85,public,200-9,43.021206,-78.962025,Grand Island,NY
15902,102587,E85,public,200-9,40.725681,-73.718546,Floral Park,NY
16346,104493,E85,public,200-9,42.161923,-71.110215,Canton,MA
20500,116864,E85,public,200-8,40.858455,-79.91124,Lyndora,PA
20560,117038,E85,public,200-8,40.106383,-75.000045,Philadelphia,PA
20967,118975,E85,public,200-9,40.714771,-73.859421,Rego Park,NY
21277,121560,E85,public,200-8,41.41812,-75.671345,Scranton,PA
22350,123493,E85,public,200-9,40.001503,-76.617066,Hellam,PA
24257,131994,E85,public,200-9,40.924056,-72.702553,Riverhead,NY
25253,145424,E85,public,200-9,42.30483,-72.649735,Northampton,MA
25866,147610,E85,public,200-8,40.657693,-73.691288,Valley Stream,NY
27310,150283,E85,public,200-9,40.738486,-80.315974,New Brighton,PA
27750,150838,E85,public,200-8,40.514351,-79.952402,Glenshaw,PA
28874,153525,E85,public,200-9,40.899291,-73.83258,Mt. Vernon,NY
28878,153529,E85,public,GPS,40.70982236091535,-73.42908872991944,Farmingdale,NY
28884,153536,E85,public,200-9,40.311245,-75.8688,Reading,PA
29221,154155,E85,public,GPS,42.25130593057604,-73.76071773149108,Hudson,NY
29739,155206,E85,public,200-9,40.262748,-75.32142,Lansdale,PA
30168,156023,E85,public,200-9,40.0069,-74.9751,Cinnaminson,NJ
34348,163629,E85,public,200-9,40.348486,-80.111563,Bridgeville,PA
35382,165522,E85,public,200-9,42.80885,-78.79814,Lackawanna,NY
35384,165524,E85,public,GPS,42.15817501232186,-76.86408612435913,Elmira,NY
37898,169712,E85,public,200-9,41.201612,-80.45561,Hermitage,PA
37899,169713,E85,public,GPS,40.21702885940923,-80.20182199601744,Washington,PA
37940,169762,E85,public,200-9,40.836096,-77.802329,State College,PA
37943,169765,E85,public,200-9,41.209051,-79.367786,Clarion,PA
37944,169766,E85,public,200-9,41.710707,-78.694168,Kane,PA
37945,169767,E85,public,GPS,40.86107557951341,-76.54933384124757,Elysburg,PA
37954,169776,E85,public,200-8,40.860239,-79.911013,Butler,PA
37965,169789,E85,public,200-9,40.560525,-80.039324,Pittsburgh,PA
37966,169790,E85,public,200-8,39.898213,-80.135081,Waynesburg,PA
37970,169794,E85,public,200-9,40.534691,-78.401126,Altoona,PA
37971,169795,E85,public,200-9,39.992456,-77.608907,Chambersburg,PA
37972,169796,E85,public,200-8,40.30073,-79.490802,Greensburg,PA
37973,169797,E85,public,200-8,40.1216,-79.558512,Mt. Pleasant,PA
37974,169798,E85,public,200-8,40.258682,-76.918093,Camp Hill,PA
37975,169799,E85,public,200-8,40.229074,-76.891438,Camp Hill,PA
37976,169800,E85,public,200-9,39.871244,-77.028185,New Oxford,PA
37977,169801,E85,public,200-8,40.011126,-79.864644,Grindstone,PA
37979,169803,E85,public,200-9,40.633606,-78.64608,Patton,PA
37980,169804,E85,public,200-9,40.052968,-78.510203,Bedford,PA
38858,171112,E85,public,200-8,40.876887,-77.776052,Bellefonte,PA
38865,171119,E85,public,GPS,40.69842580456522,-73.40964389814758,Amityville,NY
50595,186480,E85,public,200-9,39.937204,-77.672338,Chambersburg,PA
50596,186481,E85,public,200-9,41.233185,-77.019907,Williamsport,PA
50606,186492,E85,public,200-8,41.312969,-75.936734,Shavertown,PA
50608,186494,E85,public,200-9,41.00264,-80.34683,New Castle,PA
50618,186504,E85,public,200-8,43.069258,-77.298241,Macedon,NY
50619,186505,E85,public,200-9,43.204602,-77.475167,Webster,NY
50629,186520,E85,public,200-9,40.692451,-73.566631,North Merrick,NY
51265,187490,E85,private,GPS,40.01183,-74.31903,Lakehurst,NJ
51287,187513,E85,private,GPS,40.02444,-74.6257,Fort Dix,NJ
54146,193304,E85,public,GPS,40.85062712853381,-73.36603926428222,Huntington,NY
56589,196619,E85,private,GPS,40.60391,-74.058548,Staten Island,NY
60479,202985,E85,public,200-9,39.823247,-76.996911,Hanover,PA
60534,203058,E85,public,200-9,42.72459,-73.843493,Colonie,NY
60611,203148,E85,public,GPS,40.73839103463865,-75.26340020629884,Easton,PA
60667,203308,E85,public,200-9,39.993386,-76.027876,Gap,PA
61175,204321,E85,public,200-9,40.581645,-75.708248,Kutztown,PA
61180,204326,E85,public,200-8,41.3839,-75.709717,Taylor,PA
61831,205228,E85,public,200-9,41.951509,-73.99378,Kingston,NY
62927,207043,E85,public,200-9,40.080528,-76.765947,York,PA
62930,207046,E85,public,200-9,40.496459,-78.411047,Altoona,PA
62931,207047,E85,public,200-9,40.130949,-76.794317,Etters,PA
62932,207048,E85,public,200-9,39.910695,-76.704991,York,PA
62933,207049,E85,public,200-9,39.958886,-76.681345,York,PA
62934,207050,E85,public,200-9,40.081024,-76.76543,York,PA
62935,207051,E85,public,200-9,39.995876,-76.733822,York,PA
62936,207052,E85,public,200-9,39.92926,-76.822351,York,PA
65368,213652,E85,public,200-9,40.861799,-79.967283,Butler,PA
65370,213655,E85,public,GPS,41.09082619366148,-75.32573837434387,Swiftwater,PA
65490,213802,E85,public,GPS,40.306718133563386,-75.97904023007202,Reading,PA
65525,213854,E85,public,GPS,40.41500966723346,-77.01266485186768,Duncannon,PA
67500,219677,E85,public,GPS,40.1320190280457,-77.0196250083866,Dillsburg,PA
67501,219678,E85,public,GPS,39.9068445789654,-76.6111552930505,Red Lion,PA
67502,219679,E85,public,GPS,39.9263073087216,-77.7460298065433,St. Thomas,PA
67503,219680,E85,public,GPS,40.5365428099013,-75.7365349739932,Kutztown,PA
67504,219681,E85,public,GPS,40.4355773338105,-78.4350490237204,Duncansville,PA
67505,219682,E85,public,GPS,41.7684979157598,-78.0269973945571,Coudersport,PA
67506,219683,E85,public,GPS,40.3724815091084,-76.6496058295328,Grantville,PA
67507,219684,E85,public,GPS,40.2809611130674,-79.5510802842183,Greensburg,PA
67508,219685,E85,public,GPS,40.268418107677,-76.6907828583702,Hummelstown,PA
67509,219686,E85,public,GPS,40.0526128281886,-76.2548231461566,Lancaster,PA
67510,219687,E85,public,GPS,40.0823508901356,-76.3811997749912,Lancaster,PA
67511,219688,E85,public,GPS,40.2869391150215,-79.3792810537958,Latrobe,PA
67512,219689,E85,public,GPS,40.1169198731026,-76.3044951927477,Lititz,PA
67513,219690,E85,public,GPS,41.62027393518,-80.1683847503846,Meadville,PA
67514,219691,E85,public,GPS,40.1123994170363,-76.4522111772714,Mt. Joy,PA
67515,219692,E85,public,GPS,40.218864441213,-79.6096737178879,New Stanton,PA
67516,219693,E85,public,GPS,40.7593370191915,-77.8777295657446,State College,PA
67517,219694,E85,public,GPS,40.348308736657,-79.9381790541055,West Mifflin,PA
67518,219695,E85,public,GPS,40.376092812625,-80.0985832234234,Bridgeville,PA
67619,219831,E85,public,GPS,40.718284717194,-73.4381340981759,Farmingdale,NY
67623,219835,E85,public,GPS,40.4396953061036,-75.9465558592048,Leesport,PA
